code,city,country,country_code,latitude,longitude,pricing_region
ATL,Atlanta,United States,US,33.6367,-84.428101,"United States, Mexico, & Canada"
BOS,Boston,United States,US,42.3643,-71.005203,"United States, Mexico, & Canada"
ORD,Chicago,United States,US,41.978611,-87.904722,"United States, Mexico, & Canada"
CMH,Columbus,United States,US,39.998001,-82.891899,"United States, Mexico, & Canada"
DFW,Dallas,United States,US,32.896801,-97.038002,"United States, Mexico, & Canada"
DEN,Denver,United States,US,39.861698150635,-104.672996521,"United States, Mexico, & Canada"
DTW,Detroit,United States,US,42.212398529052734,-83.35340118408203,"United States, Mexico, & Canada"
IAH,Houston,United States,US,29.984399795532227,-95.34140014648438,"United States, Mexico, & Canada"
MCI,Kansas City,United States,US,39.2976,-94.713898,"United States, Mexico, & Canada"
LAX,Los Angeles,United States,US,33.942501,-118.407997,"United States, Mexico, & Canada"
MIA,Miami,United States,US,25.79319953918457,-80.29060363769531,"United States, Mexico, & Canada"
MSP,Minneapolis,United States,US,44.882,-93.221802,"United States, Mexico, & Canada"
YUL,Montreal,Canada,CA,45.470556,-73.740833,"United States, Mexico, & Canada"
BNA,Nashville,United States,US,36.1245002746582,-86.6781997680664,"United States, Mexico, & Canada"
JFK,New York,United States,US,40.639447,-73.779317,"United States, Mexico, & Canada"
EWR,Newark,United States,US,40.692501,-74.168701,"United States, Mexico, & Canada"
PHL,Philadelphia,United States,US,39.87189865112305,-75.24109649658203,"United States, Mexico, & Canada"
PHX,Phoenix,United States,US,33.435302,-112.005905,"United States, Mexico, & Canada"
PIT,Pittsburgh,United States,US,40.49150085,-80.23290253,"United States, Mexico, & Canada"
HIO,Portland,United States,US,45.540394,-122.949825,"United States, Mexico, & Canada"
QRO,Queretaro,Mexico,MX,20.6173,-100.185997,"United States, Mexico, & Canada"
SLC,Salt Lake City,United States,US,40.785749,-111.979746,"United States, Mexico, & Canada"
SFO,San Francisco,United States,US,37.61899948120117,-122.375,"United States, Mexico, & Canada"
SEA,Seattle,United States,US,47.448889,-122.309444,"United States, Mexico, & Canada"
TPA,Tampa,United States,US,27.975500106811523,-82.533203125,"United States, Mexico, & Canada"
YTO,Toronto,Canada,CA,43.6772003174,-79.63059997559999,"United States, Mexico, & Canada"
YVR,Vancouver,Canada,CA,49.193901062,-123.183998108,"United States, Mexico, & Canada"
IAD,Washington,United States,US,38.9445,-77.4558029,"United States, Mexico, & Canada"
BOG,Bogota,Colombia,CO,4.70159,-74.1469,"South America"
EZE,Buenos Aires,Argentina,AR,-34.8222,-58.5358,"South America"
FOR,Fortaleza,Brazil,BR,-3.776279926300049,-38.53260040283203,"South America"
LIM,Lima,Peru,PE,-12.0219,-77.114305,"South America"
GIG,Rio de Janeiro,Brazil,BR,-22.809999,-43.250557,"South America"
SCL,Santiago,Chile,CL,-33.393001556396484,-70.78579711914062,"South America"
GRU,Sao Paulo,Brazil,BR,-23.435556,-46.473056,"South America"
AMS,Amsterdam,Netherlands,NL,52.308601,4.76389,"Europe"
ATH,Athens,Greece,GR,37.936401,23.9445,"Europe"
BLA,Barcelona,Spain,VE,10.111111,-64.692222,"Europe"
TXL,Berlin,Germany,DE,52.559722,13.287778,"Europe"
BRU,Brussels,Belgium,BE,50.901402,4.48444,"Europe"
OTP,Bucharest,Romania,RO,44.571111,26.085,"Europe"
BUD,Budapest,Hungary,HU,47.42976,19.261093,"Europe"
CPH,Copenhagen,Denmark,DK,55.617900848389,12.656000137329,"Europe"
DUB,Dublin,Ireland,IE,53.428713,-6.262121,"Europe"
DUS,Dusseldorf,Germany,DE,51.289501,6.76678,"Europe"
FRA,Frankfurt am Main,Germany,DE,50.036521,8.561268,"Europe"
HAM,Hamburg,Germany,DE,53.630402,9.98823,"Europe"
HEL,Helsinki,Finland,FI,60.3172,24.963301,"Europe"
LIS,Lisbon,Portugal,PT,38.7813,-9.13592,"Europe"
LHR,London,Great Britain,GB,51.4775,-0.461389,"Europe"
MAD,Madrid,Spain,ES,40.471926,-3.56264,"Europe"
MAN,Manchester,Great Britain,GB,53.349375,-2.279521,"Europe"
MRS,Marseille,France,FR,43.439271922,5.22142410278,"Europe"
MXP,Milan,Italy,IT,45.6306,8.72811,"Europe"
MUC,Munich,Germany,DE,48.353802,11.7861,"Europe"
OSL,Oslo,Norway,NO,60.193901,11.1004,"Europe"
PMO,Palermo,Italy,IT,38.175999,13.091,"Europe"
CDG,Paris,France,FR,49.012798,2.55,"Europe"
PRG,Prague,Czech Republic,CZ,50.1008,14.26,"Europe"
FCO,Rome,Italy,IT,41.8002778,12.2388889,"Europe"
SOF,Sofia,Bulgaria,BG,42.696693420410156,23.411436080932617,"Europe"
ARN,Stockholm,Sweden,SE,59.651901245117,17.918600082397,"Europe"
VIE,Vienna,Austria,AT,48.110298,16.5697,"Europe"
WAW,Warsaw,Poland,PL,52.165833,20.967222,"Europe"
ZAG,Zagreb,Croatia,HR,45.7429008484,16.0687999725,"Europe"
ZRH,Zurich,Switzerland,CH,47.458056,8.548056,"Europe"
DXB,Dubai,United Arab Emirates,AE,25.2527999878,55.3643989563,"Middle East"
FJR,Fujairah,United Arab Emirates,AE,25.112222,56.324167,"Middle East"
IST,Istanbul,Turkey,TR,41.262222,28.727778,"Europe"
JED,Jeddah,Kingdom of Saudi Arabia,SA,21.6796,39.156502,""
BAH,Manama,Bahrain,BH,26.267295,50.63764,"Middle East"
MCT,Muscat,Oman,OM,23.593299865722656,58.284400939941406,"Middle East"
DOH,Qatar,Qatar,QA,25.273056,51.608056,"Middle East"
TLV,Tel Aviv,Israel,IL,32.01139831542969,34.88669967651367,""
CAI,Cairo,Egypt,EG,30.111534,31.396694,"Africa"
CPT,Cape Town,South Africa,ZA,-33.9648017883,18.6016998291,"Africa"
JNB,Johannesburg,South Africa,ZA,-26.1392,28.246,"Africa"
LOS,Lagos,Nigeria,NG,6.5773701667785645,3.321160078048706,"Africa"
NBO,Nairobi,Kenya,KE,-1.31923997402,36.9277992249,"Africa"
BKK,Bangkok,Thailand,TH,13.689999,100.750114,"Hong Kong, Indonesia, Philippines, Singapore, South Korea, Taiwan, & Thailand"
PEK,Beijing,China,CN,40.080101013183594,116.58499908447266,"China"
BLR,Bengaluru,India,IN,13.198889,77.705556,"India"
MAA,Chennai,India,IN,12.990005,80.169296,"India"
DEL,New Delhi,India,IN,28.55563,77.09519,"India"
HAN,Hanoi,Vietnam,VN,21.221201,105.806999,"Hong Kong, Indonesia, Philippines, Singapore, South Korea, Taiwan, & Thailand"
SGN,Ho Chi Minh City,Vietnam,VN,10.8188,106.652,"Hong Kong, Indonesia, Philippines, Singapore, South Korea, Taiwan, & Thailand"
HKG,Hong Kong,China,HK,22.308901,113.915001,"China"
HYD,Hyderabad,India,IN,17.231318,78.429855,"India"
CGK,Jakarta,Indonesia,ID,-6.1255698204,106.65599823,"Hong Kong, Indonesia, Philippines, Singapore, South Korea, Taiwan, & Thailand"
CCU,Kolkata,India,IN,22.654699325561523,88.44670104980469,"India"
KUL,Kuala Lumpur,Malaysia,MY,2.74558,101.709999,"Hong Kong, Indonesia, Philippines, Singapore, South Korea, Taiwan, & Thailand"
MNL,Manila,Philippines,PH,14.5086,121.019997,"Hong Kong, Indonesia, Philippines, Singapore, South Korea, Taiwan, & Thailand"
BOM,Mumbai,India,IN,19.0886993408,72.8678970337,"India"
KIX,Osaka,Japan,JP,34.427299,135.244003,"Japan"
PNQ,Pune,India,IN,18.58209991455078,73.9197006225586,"India"
ICN,Seoul,South Korea,KR,37.46910095214844,126.45099639892578,""
PVG,Shanghai,China,CN,31.1434,121.805,"China"
SZX,Shenzhen,China,CN,22.639299,113.810997,"China"
SIN,Singapore,Singapore,SG,1.35019,103.994003,"Hong Kong, Indonesia, Philippines, Singapore, South Korea, Taiwan, & Thailand"
TPE,Taoyuan,Taiwan,TW,25.0777,121.233002,"Hong Kong, Indonesia, Philippines, Singapore, South Korea, Taiwan, & Thailand"
NRT,Tokyo,Japan,JP,35.764702,140.386002,"Japan"
ZHY,Zhongwei,China,CN,37.572778,105.154444,"China"
AKL,Auckland,New Zealand,NZ,-37.01199,174.786331,"Australia & New Zealand"
BNE,Brisbane,Australia,AU,-27.384199142456055,153.11700439453125,"Australia & New Zealand"
MEL,Melbourne,Australia,AU,-37.673302,144.843002,"Australia & New Zealand"
PER,Perth,Australia,AU,-31.94029998779297,115.96700286865234,"Australia & New Zealand"
SYD,Sydney,Australia,AU,-33.94609832763672,151.177001953125,"Australia & New Zealand"